[{"place_id": 16497364, "licence": "Data \u00a9 OpenStreetMap contributors, ODbL 1.0. http://osm.org/copyright", "osm_type": "node", "osm_id": 1832848713, "lat": "51.2435475", "lon": "4.3845213", "class": "place", "type": "locality", "place_rank": 25, "importance": 0.25025484525520936, "addresstype": "locality", "name": "Oosterweel", "display_name": "Oosterweel, Antwerp, Flanders, 2030, Belgium", "boundingbox": ["51.2335475", "51.2535475", "4.3745213", "4.3945213"]}, {"place_id": 16465457, "licence": "Data \u00a9 OpenStreetMap contributors, ODbL 1.0. http://osm.org/copyright", "osm_type": "node", "osm_id": 1832834300, "lat": "51.2754913", "lon": "4.3729634", "class": "place", "type": "locality", "place_rank": 25, "importance": 0.23859140675544002, "addresstype": "locality", "name": "Wilmarsdonk", "display_name": "Wilmarsdonk, Antwerp, 2030, Belgium", "boundingbox": ["51.2654913", "51.2854913", "4.3629634", "4.3829634"]}, {"place_id": 21077392, "licence": "Data \u00a9 OpenStreetMap contributors, ODbL 1.0. http://osm.org/copyright", "osm_type": "node", "osm_id": 2362868559, "lat": "45.4613283", "lon": "10.9558187", "class": "place", "type": "locality", "place_rank": 25, "importance": 0.12500999999999995, "addresstype": "locality", "name": "Corte Molon", "display_name": "Corte Molon, Nord-Ovest, Verona, Veneto, 37125, Italy", "boundingbox": ["45.4513283", "45.4713283", "10.9458187", "10.9658187"]}, {"place_id": 21077392, "licence": "Data \u00a9 OpenStreetMap contributors, ODbL 1.0. http://osm.org/copyright", "osm_type": "node", "osm_id": 2362868559, "lat": "45.4613283", "lon": "10.9558187", "class": "place", "type": "locality", "place_rank": 25, "importance": 0.12500999999999995, "addresstype": "locality", "name": "Corte Molon", "display_name": "Corte Molon", "boundingbox": ["45.4513283", "45.4713283", "10.9458187", "10.9658187"]}, {"place_id": 21077392, "licence": "Data \u00a9 OpenStreetMap contributors, ODbL 1.0. http://osm.org/copyright", "osm_type": "node", "osm_id": 2362868559, "lat": "45.4613283", "lon": "10.9558187", "class": "place", "type": "locality", "place_rank": 25, "importance": 0.12500999999999995, "addresstype": "locality", "name": "Corte Molon", "display_name": "Corte Molon", "boundingbox": ["45.4513283", "45.4713283", "10.9458187", "10.9658187"]}, {"place_id": 21077392, "licence": "Data \u00a9 OpenStreetMap contributors, ODbL 1.0. http://osm.org/copyright", "osm_type": "node", "osm_id": 2362868559, "lat": "45.4613283", "lon": "10.9558187", "class": "place", "type": "locality", "place_rank": 25, "importance": 0.12500999999999995, "addresstype": "locality", "name": "Corte Molon", "display_name": "Corte Molon", "boundingbox": ["45.4513283", "45.4713283", "10.9458187", "10.9658187"]}, {"place_id": 21554304, "licence": "Data \u00a9 OpenStreetMap contributors, ODbL 1.0. http://osm.org/copyright", "osm_type": "node", "osm_id": 2396271176, "lat": "51.2422489", "lon": "4.3939904", "class": "place", "type": "locality", "place_rank": 25, "importance": 0.17461773632832445, "addresstype": "locality", "name": "Noordkasteel", "display_name": "Noordkasteel, Antwerp, Flanders, 2030, Belgium", "boundingbox": ["51.2322489", "51.2522489", "4.3839904", "4.4039904"]}, {"place_id": 14715335, "licence": "Data \u00a9 OpenStreetMap contributors, ODbL 1.0. http://osm.org/copyright", "osm_type": "node", "osm_id": 1543582317, "lat": "51.1928151", "lon": "4.4077656", "class": "place", "type": "locality", "place_rank": 25, "importance": 0.12500999999999995, "addresstype": "locality", "name": "Brusselsepoort", "display_name": "Brusselsepoort, Markgrave, Antwerp, Flanders, 2018, Belgium", "boundingbox": ["51.1828151", "51.2028151", "4.3977656", "4.4177656"]}, {"place_id": 360677222, "licence": "Data \u00a9 OpenStreetMap contributors, ODbL 1.0. http://osm.org/copyright", "osm_type": "node", "osm_id": 10768212681, "lat": "51.1989857", "lon": "4.3588022", "class": "place", "type": "locality", "place_rank": 25, "importance": 0.12500999999999995, "addresstype": "locality", "name": "Petroleum Zuid", "display_name": "Petroleum Zuid, Antwerp, Flanders, 2020, Belgium", "boundingbox": ["51.1889857", "51.2089857", "4.3488022", "4.3688022"]}]